time.TIME,Gyro.gyro_X,Gyro.gyro_Y,Vehicle_States.longitudinal_vel_wrt_road,Vehicle_States.lateral_vel_wrt_road,Vehicle_States.pitch_angle,Vehicle_States.roll_angle,Vehicle_States.yaw_angle,driving_machine_monitor.path_curvature,driver_demands.steering
0,-1.156027104,2.6276E-05,25,1.06174E-06,-0.008490553,-5.00203E-06,5.9E-11,0,0
0.01,-0.906015537,2.62797E-05,25.00194849,2.05584E-06,-0.008490252,-4.99633E-06,-3.024E-09,0,-4E-12
0.02,-0.656000438,2.62974E-05,25.00032512,4.27649E-06,-0.008486688,-4.96949E-06,-1.875E-08,0,-3.737E-09
0.03,-0.406021475,2.63368E-05,24.99503748,7.58236E-06,-0.008476178,-4.91144E-06,-5.4195E-08,0,-7.368E-09
0.04,-0.156102636,2.64022E-05,24.988843,1.17722E-05,-0.008455588,-4.81803E-06,-1.13664E-07,0,5.2044E-08
0.05,0.093761147,2.64951E-05,24.98431494,1.66251E-05,-0.008425286,-4.69279E-06,-1.9937E-07,0,3.13608E-07
0.06,0.343591124,2.66147E-05,24.98198478,2.19753E-05,-0.008388729,-4.54628E-06,-3.11824E-07,0,9.80813E-07
0.07,0.593404032,2.67589E-05,24.98061969,2.77335E-05,-0.008349718,-4.39275E-06,-4.50112E-07,0,2.29122E-06
0.08,0.843201674,2.69254E-05,24.97874127,3.38592E-05,-0.008310313,-4.24656E-06,-6.1228E-07,0,4.47703E-06
0.09,1.092975339,2.7112E-05,24.97584411,4.03201E-05,-0.008270697,-4.11946E-06,-7.95863E-07,0,7.72961E-06
0.1,1.342716983,2.73166E-05,24.9724888,4.70719E-05,-0.008230397,-4.0192E-06,-9.98305E-07,0,1.21752E-05
0.11,1.592426526,2.75377E-05,24.96955228,5.4055E-05,-0.008189531,-3.95129E-06,-1.21707E-06,0,1.78544E-05
0.12,1.842110882,2.77732E-05,24.96746706,6.12084E-05,-0.008149173,-3.91834E-06,-1.4495E-06,0,2.47019E-05
0.13,2.091778007,2.80216E-05,24.96603311,6.84795E-05,-0.008110813,-3.92089E-06,-1.69259E-06,0,3.25277E-05
0.14,2.341432036,2.82814E-05,24.96477013,7.58193E-05,-0.008075629,-3.95748E-06,-1.94294E-06,0,4.10178E-05
0.15,2.591072865,2.85516E-05,24.96337141,8.31726E-05,-0.008044183,-4.02441E-06,-2.19692E-06,0,4.97659E-05
0.16,2.840699068,2.88316E-05,24.96187659,9.04734E-05,-0.008016621,-4.1163E-06,-0.000002451,0,5.83297E-05
0.17,3.09031079,2.91208E-05,24.96051571,9.76409E-05,-0.007993016,-4.22648E-06,-2.70193E-06,0,6.6292E-05
0.18,3.339910309,2.94185E-05,24.959447,0.00010459,-0.007973534,-4.34822E-06,-2.94675E-06,0,7.33155E-05
0.19,3.5895005,2.9724E-05,24.95862748,0.000111231,-0.00795835,-4.47711E-06,-3.18276E-06,0,7.91917E-05
0.2,3.839083021,3.00363E-05,24.95788037,0.000117496,-0.007947464,-4.61016E-06,-3.40746E-06,0,8.3902E-05
0.21,4.088657748,3.03544E-05,24.95705173,0.00012332,-0.007940621,-4.74063E-06,-3.61868E-06,0,8.76688E-05
0.22,4.338223592,3.06773E-05,24.95610977,0.000128645,-0.007937414,-4.86573E-06,-3.81472E-06,0,9.08484E-05
0.23,4.58777973,3.10036E-05,24.95512752,0.000133427,-0.007937431,-4.98389E-06,-3.99435E-06,0,9.351E-05
0.24,4.837326226,3.1332E-05,24.9541927,0.000137638,-0.007940352,-5.09387E-06,-4.15675E-06,0,9.56623E-05
0.25,5.086863763,3.16612E-05,24.95333411,0.000141266,-0.00794594,-5.19465E-06,-4.30141E-06,0,9.73159E-05
0.26,5.336392967,3.19896E-05,24.95251742,0.000144308,-0.007953976,-5.28545E-06,-4.42799E-06,0,9.84784E-05
0.27,5.585914,3.23162E-05,24.95169289,0.000146775,-0.0079642,-5.3661E-06,-4.53633E-06,0,9.91577E-05
0.28,5.83542665,3.26397E-05,24.95084114,0.000148676,-0.007976322,-5.43655E-06,-4.62645E-06,0,9.93662E-05
0.29,6.084930714,3.29591E-05,24.9499807,0.00015003,-0.007990044,-5.4964E-06,-4.69862E-06,0,9.91281E-05
0.3,6.334426263,3.32735E-05,24.94914263,0.000150863,-0.008005096,-0.000005546,-4.75338E-06,0,9.84731E-05
0.31,6.583913619,3.35821E-05,24.94834221,0.000151203,-0.008021239,-5.58587E-06,-4.79143E-06,0,9.74347E-05
0.32,6.833393135,3.38842E-05,24.94757164,0.000151082,-0.008038248,-5.61659E-06,-4.81363E-06,0,9.60457E-05
0.33,7.082865022,3.41793E-05,24.94681353,0.000150537,-0.0080559,-5.63882E-06,-4.82091E-06,0,9.43377E-05
0.34,7.332329348,3.44668E-05,24.94605843,0.000149606,-0.008073968,-5.65318E-06,-4.81429E-06,0,0.000092343
0.35,7.581786153,3.47466E-05,24.94531085,0.000148325,-0.008092241,-5.6603E-06,-4.7949E-06,0,9.0097E-05
0.36,7.83123557,3.50182E-05,24.94458211,0.000146735,-0.008110529,-5.66086E-06,-4.76397E-06,0,8.76378E-05
0.37,8.08067783,3.52816E-05,24.94387953,0.000144876,-0.008128671,-5.65544E-06,-4.72281E-06,0,8.50045E-05
0.38,8.330113195,3.55367E-05,24.94320171,0.000142788,-0.008146521,-5.64479E-06,-4.67273E-06,0,8.22336E-05
0.39,8.579541881,3.57834E-05,24.94254209,0.000140511,-0.008163942,-5.62917E-06,-4.61508E-06,0,7.93612E-05
0.4,8.828964042,3.60218E-05,24.94189577,0.000138086,-0.008180808,-5.60921E-06,-4.55117E-06,0,7.64194E-05
0.41,9.078379807,3.6252E-05,24.94126293,0.000135549,-0.008197004,-5.58576E-06,-4.48228E-06,0,7.34389E-05
0.42,9.327789328,3.64741E-05,24.94064718,0.000132937,-0.008212433,-5.55921E-06,-4.4097E-06,0,7.04517E-05
0.43,9.577192793,3.66884E-05,24.94005134,0.000130283,-0.00822702,-5.53008E-06,-4.33468E-06,0,6.74877E-05
0.44,9.826590401,3.6895E-05,24.9394749,0.000127619,-0.008240703,-5.49889E-06,-4.2584E-06,0,6.45746E-05
0.45,10.07598233,3.70942E-05,24.9389147,0.000124978,-0.008253433,-5.46619E-06,-4.18199E-06,0,6.1737E-05
0.46,10.32536873,3.72863E-05,24.93836746,0.000122386,-0.008265171,-5.43249E-06,-4.10651E-06,0,5.89967E-05
0.47,10.57474971,3.74714E-05,24.93783161,0.00011987,-0.008275887,-5.39828E-06,-4.03292E-06,0,0.000056373
0.48,10.82412539,3.765E-05,24.93730711,0.000117451,-0.008285562,-5.36403E-06,-3.96212E-06,0,5.38831E-05
0.49,11.07349589,3.78223E-05,24.93679395,0.000115149,-0.008294192,-5.3302E-06,-3.89489E-06,0,5.15424E-05
0.5,11.3228613,3.79885E-05,24.93629082,0.000112983,-0.008301781,-5.29718E-06,-3.83197E-06,0,4.93635E-05
0.51,11.57222173,3.8149E-05,24.93579506,0.000110967,-0.008308342,-5.26537E-06,-3.77398E-06,0,4.73567E-05
0.52,11.82157722,3.8304E-05,24.93530381,0.000109112,-0.008313893,-5.2351E-06,-3.72145E-06,0,4.55292E-05
0.53,12.07092782,3.84537E-05,24.93481571,0.000107427,-0.00831846,-5.20666E-06,-3.67481E-06,0,4.38859E-05
0.54,12.32027355,3.85984E-05,24.93433129,0.00010592,-0.008322079,-5.1803E-06,-3.63439E-06,0,4.24295E-05
0.55,12.56961446,3.87382E-05,24.9338519,0.000104593,-0.008324793,-5.15622E-06,-3.60046E-06,0,4.11607E-05
0.56,12.8189506,3.88734E-05,24.93337844,0.000103449,-0.008326656,-5.1346E-06,-3.57316E-06,0,4.00782E-05
0.57,13.06828205,3.90041E-05,24.93291079,0.000102486,-0.008327727,-5.11555E-06,-3.55259E-06,0,3.91789E-05
0.58,13.31760884,3.91304E-05,24.9324482,0.000101702,-0.008328066,-5.09916E-06,-3.53874E-06,0,3.84575E-05
0.59,13.56693102,3.92524E-05,24.93199005,0.000101092,-0.008327739,-5.08547E-06,-3.53154E-06,0,3.79077E-05
0.6,13.81624865,3.93702E-05,24.93153626,0.00010065,-0.00832681,-5.07446E-06,-3.53083E-06,0,3.75214E-05
0.61,14.06556177,3.94838E-05,24.93108715,0.000100368,-0.008325343,-5.06611E-06,-3.53642E-06,0,3.72899E-05
0.62,14.31487041,3.95932E-05,24.93064305,0.000100236,-0.008323406,-5.06034E-06,-3.54805E-06,0,3.72034E-05
0.63,14.56417464,3.96984E-05,24.93020401,0.000100245,-0.008321063,-5.05697E-06,-3.56542E-06,0,3.72513E-05
0.64,14.81347451,3.97994E-05,24.92976983,0.000100384,-0.008318381,-5.05568E-06,-3.58818E-06,0,3.74227E-05
0.65,15.06277006,3.9896E-05,24.92934029,0.000100642,-0.008315422,-5.05647E-06,-3.61595E-06,0,3.77055E-05
0.66,15.31206133,3.99883E-05,24.92891529,0.000101006,-0.008312248,-5.05937E-06,-3.64832E-06,0,3.80878E-05
0.67,15.56134838,4.00762E-05,24.92849489,0.000101464,-0.008308917,-5.06424E-06,-3.68487E-06,0,3.85581E-05
0.68,15.81063124,4.01594E-05,24.92807921,0.000102003,-0.008305486,-5.07089E-06,-3.72516E-06,0,3.91048E-05
0.69,16.05990998,4.0238E-05,24.92766827,0.000102612,-0.008302007,-5.07917E-06,-3.76875E-06,0,3.97167E-05
0.7,16.30918462,4.03117E-05,24.92726204,0.000103279,-0.008298528,-5.08897E-06,-3.81518E-06,0,4.03827E-05
0.71,16.55845523,4.03804E-05,24.92686042,0.000103992,-0.008295096,-5.10009E-06,-3.86402E-06,0,4.10916E-05
0.72,16.80772185,4.0444E-05,24.92646337,0.00010474,-0.008291752,-5.11244E-06,-3.91481E-06,0,4.18331E-05
0.73,17.05698452,4.05024E-05,24.92607089,0.000105511,-0.008288533,-5.12582E-06,-3.96714E-06,0,4.25969E-05
0.74,17.30624328,4.05553E-05,24.92568301,0.000106295,-0.008285474,-5.13998E-06,-4.02057E-06,0,4.33738E-05
0.75,17.55549819,4.06027E-05,24.92529974,0.000107082,-0.008282602,-5.15463E-06,-4.07471E-06,0,4.41549E-05
0.76,17.80474929,4.06444E-05,24.92492108,0.000107863,-0.008279945,-5.16945E-06,-4.12919E-06,0,4.49325E-05
0.77,18.05399663,4.06802E-05,24.92454699,0.000108628,-0.008277523,-5.18422E-06,-4.18364E-06,0,4.56994E-05
0.78,18.30324025,4.071E-05,24.92417745,0.000109371,-0.008275354,-5.19869E-06,-4.23775E-06,0,4.6449E-05
0.79,18.55248019,4.07336E-05,24.92381244,0.000110083,-0.008273452,-5.21261E-06,-4.29122E-06,0,4.71759E-05
0.8,18.80171651,4.0751E-05,24.92345197,0.00011076,-0.008271827,-5.22584E-06,-4.34376E-06,0,4.78752E-05
0.81,19.05094925,4.0762E-05,24.92309605,0.000111396,-0.008270486,-5.23824E-06,-4.39514E-06,0,4.85428E-05
0.82,19.30017845,4.07665E-05,24.92274468,0.000111986,-0.008269433,-5.24973E-06,-4.44515E-06,0,4.91754E-05
0.83,19.54940415,4.07644E-05,24.92239782,0.000112528,-0.008268667,-5.26025E-06,-4.4936E-06,0,4.97704E-05
0.84,19.79862642,4.07555E-05,24.92205548,0.000113019,-0.008268188,-5.26979E-06,-4.54033E-06,0,5.03261E-05
0.85,20.04784528,4.07399E-05,24.92171763,0.000113457,-0.00826799,-5.27833E-06,-4.58522E-06,0,5.08411E-05
0.86,20.29706078,4.07175E-05,24.92138427,0.000113842,-0.008268066,-5.28589E-06,-4.62815E-06,0,5.13149E-05
0.87,20.54627298,4.06882E-05,24.9210554,0.000114172,-0.008268407,-5.29254E-06,-4.66906E-06,0,5.17476E-05
0.88,20.79548191,4.0652E-05,24.92073101,0.000114449,-0.008269001,-5.29832E-06,-4.70791E-06,0,5.21396E-05
0.89,21.04468761,4.06088E-05,24.92041108,0.000114674,-0.008269836,-5.30334E-06,-4.74465E-06,0,5.24924E-05
0.9,21.29389014,4.05588E-05,24.92009561,0.000114846,-0.008270899,-5.30762E-06,-4.7793E-06,0,5.28074E-05
0.91,21.54308954,4.05019E-05,24.91978458,0.00011497,-0.008272172,-5.31105E-06,-4.81186E-06,0,5.30864E-05
0.92,21.79228585,4.04381E-05,24.91947797,0.000115046,-0.008273641,-5.31361E-06,-4.84238E-06,0,5.33315E-05
0.93,22.04147912,4.03675E-05,24.91917578,0.000115078,-0.008275289,-5.31535E-06,-4.87089E-06,0,5.35449E-05
0.94,22.29066938,4.02902E-05,24.918878,0.000115068,-0.008277098,-5.31622E-06,-4.89747E-06,0,5.37289E-05
0.95,22.53985669,4.02062E-05,24.9185846,0.000115017,-0.008279051,-5.31618E-06,-4.92219E-06,0,5.3886E-05
0.96,22.78904109,4.01156E-05,24.91829558,0.000114931,-0.00828113,-5.31514E-06,-4.94512E-06,0,5.40191E-05
0.97,23.03822262,4.00184E-05,24.91801092,0.00011481,-0.008283316,-5.31303E-06,-4.96636E-06,0,5.4131E-05
0.98,23.28740132,3.99148E-05,24.9177306,0.000114659,-0.008285594,-5.30982E-06,-4.98602E-06,0,5.42247E-05
0.99,23.53657724,3.98049E-05,24.9174546,0.000114481,-0.008287946,-5.30548E-06,-5.00419E-06,0,5.4303E-05
1,23.78575043,3.96887E-05,24.91718291,0.000114278,-0.008290356,-5.30006E-06,-5.02098E-06,0,5.43686E-05
1.01,24.03492091,3.95664E-05,24.91691552,0.000114055,-0.008292806,-5.29361E-06,-5.03651E-06,0,5.44245E-05
1.02,24.28408875,3.94381E-05,24.9166524,0.000113815,-0.008295284,-5.28621E-06,-5.05087E-06,0,5.4473E-05
1.03,24.53325398,3.93039E-05,24.91639353,0.000113561,-0.008297773,-5.27794E-06,-5.06418E-06,0,5.4517E-05
1.04,24.78241664,3.91639E-05,24.9161389,0.000113297,-0.008300261,-5.26895E-06,-5.07654E-06,0,5.45588E-05
1.05,25.03157677,3.90183E-05,24.91588849,0.000113024,-0.008302734,-5.25938E-06,-5.08805E-06,0,5.4601E-05
1.06,25.28073442,3.88672E-05,24.91564227,0.000112748,-0.008305183,-5.24938E-06,-5.09881E-06,0,5.46459E-05
1.07,25.52988963,3.87108E-05,24.91540023,0.000112469,-0.008307595,-5.23905E-06,-5.10893E-06,0,5.46955E-05
1.08,25.77904244,3.85492E-05,24.91516235,0.000112192,-0.008309962,-5.22851E-06,-5.11848E-06,0,5.47514E-05
1.09,26.02819289,3.83825E-05,24.9149286,0.000111919,-0.008312275,-5.21792E-06,-5.12755E-06,0,5.48156E-05
1.1,26.27734102,3.82109E-05,24.91469897,0.000111651,-0.008314526,-5.20738E-06,-5.13622E-06,0,5.48894E-05
1.11,26.52648688,3.80346E-05,24.91447344,0.000111391,-0.00831671,-5.19696E-06,-5.14457E-06,0,5.49741E-05
1.12,26.77563051,3.78538E-05,24.91425198,0.00011114,-0.008318821,-5.18673E-06,-5.15264E-06,0,5.50704E-05
1.13,27.02477193,3.76685E-05,24.91403457,0.0001109,-0.008320855,-5.17671E-06,-5.16051E-06,0,5.51794E-05
1.14,27.27391121,3.7479E-05,24.91382119,0.000110672,-0.008322808,-5.16695E-06,-5.16821E-06,0,5.53014E-05
1.15,27.52304837,3.72854E-05,24.91361182,0.000110456,-0.008324678,-5.15742E-06,-5.17578E-06,0,5.54367E-05
1.16,27.77218346,3.70878E-05,24.91340644,0.000110253,-0.008326464,-5.14813E-06,-5.18326E-06,0,5.55855E-05
1.17,28.02131651,3.68865E-05,24.91320503,0.000110064,-0.008328165,-5.1391E-06,-5.19068E-06,0,5.57477E-05
1.18,28.27044757,3.66815E-05,24.91300756,0.000109889,-0.008329781,-5.13031E-06,-5.19804E-06,0,5.5923E-05
1.19,28.51957668,3.6473E-05,24.91281402,0.000109727,-0.008331312,-5.12173E-06,-5.20536E-06,0,5.6111E-05
1.2,28.76870387,3.62612E-05,24.91262438,0.000109578,-0.008332761,-5.11337E-06,-5.21265E-06,0,5.63114E-05
1.21,29.01782918,3.60462E-05,24.91243862,0.000109443,-0.00833413,-5.10521E-06,-5.2199E-06,0,5.65234E-05
1.22,29.26695265,3.58281E-05,24.91225672,0.000109321,-0.00833542,-5.09726E-06,-5.2271E-06,0,5.67463E-05
1.23,29.51607433,3.56071E-05,24.91207866,0.000109211,-0.008336636,-5.0895E-06,-5.23426E-06,0,5.69792E-05
1.24,29.76519424,3.53833E-05,24.91190441,0.000109112,-0.00833778,-5.08194E-06,-5.24134E-06,0,5.72213E-05
1.25,30.01431243,3.51568E-05,24.91173397,0.000109024,-0.008338857,-5.07457E-06,-5.24833E-06,0,5.74715E-05
1.26,30.26342893,3.49278E-05,24.9115673,0.000108946,-0.00833987,-5.06739E-06,-5.2552E-06,0,5.77289E-05
1.27,30.51254378,3.46964E-05,24.91140439,0.000108877,-0.008340825,-5.06038E-06,-5.26193E-06,0,5.79924E-05
1.28,30.76165703,3.44627E-05,24.91124521,0.000108816,-0.008341726,-5.05352E-06,-5.2685E-06,0,5.82611E-05
1.29,31.0107687,3.42269E-05,24.91108975,0.000108763,-0.008342577,-5.04681E-06,-5.27487E-06,0,5.85339E-05
1.3,31.25987884,3.3989E-05,24.91093799,0.000108715,-0.008343383,-5.04021E-06,-5.28102E-06,0,5.88095E-05
1.31,31.50898747,3.37492E-05,24.9107899,0.000108673,-0.008344149,-5.0337E-06,-5.2869E-06,0,5.90873E-05
1.32,31.75809465,3.35076E-05,24.91064547,0.000108636,-0.008344879,-5.02726E-06,-5.2925E-06,0,5.93659E-05
1.33,32.0072004,3.32642E-05,24.91050468,0.000108601,-0.00834558,-5.02088E-06,-5.29778E-06,0,5.96445E-05
1.34,32.25630475,3.30193E-05,24.9103675,0.00010857,-0.008346254,-5.01454E-06,-5.30271E-06,0,5.99222E-05
1.35,32.50540776,3.2773E-05,24.91023392,0.000108539,-0.008346906,-5.00824E-06,-5.30727E-06,0,6.01981E-05
1.36,32.75450944,3.25252E-05,24.91010392,0.00010851,-0.008347541,-5.00198E-06,-5.31142E-06,0,6.04716E-05
1.37,33.00360985,3.22763E-05,24.90997748,0.000108482,-0.008348163,-4.99576E-06,-5.31515E-06,0,6.07418E-05
1.38,33.252709,3.20261E-05,24.90985459,0.000108453,-0.008348776,-4.98958E-06,-5.31844E-06,0,6.10082E-05
1.39,33.50180695,3.1775E-05,24.90973521,0.000108423,-0.008349383,-4.98346E-06,-5.32125E-06,0,6.12701E-05
1.4,33.75090372,3.15229E-05,24.90961934,0.000108392,-0.008349987,-4.9774E-06,-5.32358E-06,0,6.15272E-05
1.41,33.99999935,3.127E-05,24.90950696,0.000108359,-0.008350593,-4.97142E-06,-5.32541E-06,0,6.17789E-05
1.42,34.24909387,3.10163E-05,24.90939804,0.000108325,-0.008351201,-4.96552E-06,-5.32673E-06,0,6.20248E-05
1.43,34.49818732,3.07621E-05,24.90929258,0.000108288,-0.008351816,-4.9597E-06,-5.32753E-06,0,6.22647E-05
1.44,34.74727973,3.05074E-05,24.90919054,0.000108248,-0.008352439,-4.95396E-06,-5.32779E-06,0,6.24982E-05
1.45,34.99637114,3.02523E-05,24.90909192,0.000108206,-0.008353072,-4.94828E-06,-5.32752E-06,0,6.27251E-05
1.46,35.24546158,2.99969E-05,24.90899669,0.00010816,-0.008353718,-4.94267E-06,-5.32671E-06,0,6.29453E-05
1.47,35.49455109,2.97413E-05,24.90890484,0.000108112,-0.008354377,-4.93711E-06,-5.32535E-06,0,6.31586E-05
1.48,35.74363969,2.94856E-05,24.90881635,0.000108061,-0.00835505,-4.9316E-06,-5.32346E-06,0,6.3365E-05
1.49,35.99272743,2.923E-05,24.90873121,0.000108006,-0.008355739,-4.92613E-06,-5.32103E-06,0,6.35644E-05
1.5,36.24181433,2.89745E-05,24.90864938,0.000107949,-0.008356444,-4.92069E-06,-5.31806E-06,0,6.37568E-05
1.51,36.49090043,2.87192E-05,24.90857086,0.000107888,-0.008357166,-4.91527E-06,-5.31458E-06,0,6.39424E-05
1.52,36.73998576,2.84643E-05,24.90849563,0.000107825,-0.008357904,-4.90987E-06,-5.31057E-06,0,6.4121E-05
1.53,36.98907035,2.82097E-05,24.90842367,0.000107759,-0.008358659,-4.90449E-06,-5.30606E-06,0,6.42929E-05
1.54,37.23815424,2.79557E-05,24.90835497,0.00010769,-0.00835943,-4.89913E-06,-5.30104E-06,0,6.44581E-05
1.55,37.48723746,2.77024E-05,24.9082895,0.000107619,-0.008360218,-4.89377E-06,-5.29555E-06,0,6.46169E-05
1.56,37.73632004,2.74497E-05,24.90822724,0.000107546,-0.008361021,-4.88843E-06,-5.28958E-06,0,6.47694E-05
1.57,37.98540201,2.71979E-05,24.90816819,0.000107471,-0.008361839,-4.88311E-06,-5.28315E-06,0,6.49156E-05
1.58,38.23448341,2.6947E-05,24.90811232,0.000107394,-0.008362671,-4.87781E-06,-5.27628E-06,0,6.5056E-05
1.59,38.48356427,2.6697E-05,24.90805961,0.000107316,-0.008363516,-4.87253E-06,-5.26898E-06,0,6.51905E-05
1.6,38.73264462,2.64482E-05,24.90801005,0.000107236,-0.008364373,-4.86729E-06,-5.26127E-06,0,6.53196E-05
1.61,38.98172448,2.62006E-05,24.90796362,0.000107156,-0.008365241,-4.86209E-06,-5.25316E-06,0,6.54433E-05
1.62,39.2308039,2.59542E-05,24.9079203,0.000107075,-0.008366119,-4.85693E-06,-5.24468E-06,0,6.55618E-05
1.63,39.4798829,2.57092E-05,24.90788007,0.000106994,-0.008367006,-4.85183E-06,-5.23583E-06,0,6.56754E-05
1.64,39.72896151,2.54656E-05,24.90784291,0.000106912,-0.0083679,-4.84679E-06,-5.22663E-06,0,6.57843E-05
1.65,39.97803977,2.52236E-05,24.90780882,0.000106831,-0.0083688,-4.84182E-06,-5.2171E-06,0,6.58887E-05
1.66,40.2271177,2.49831E-05,24.90777776,0.00010675,-0.008369705,-4.83692E-06,-5.20726E-06,0,6.59887E-05
1.67,40.47619533,2.47444E-05,24.90774973,0.00010667,-0.008370613,-4.83212E-06,-5.19712E-06,0,6.60846E-05
1.68,40.7252727,2.45074E-05,24.9077247,0.000106591,-0.008371524,-4.8274E-06,-5.1867E-06,0,6.61765E-05
1.69,40.97434984,2.42723E-05,24.90770265,0.000106513,-0.008372436,-4.82279E-06,-5.17602E-06,0,6.62646E-05
1.7,41.22342676,2.40391E-05,24.90768358,0.000106436,-0.008373348,-4.81828E-06,-5.16508E-06,0,6.63489E-05
1.71,41.47250352,2.3808E-05,24.90766745,0.00010636,-0.008374258,-4.81388E-06,-5.15391E-06,0,6.64298E-05
1.72,41.72158012,2.35789E-05,24.90765425,0.000106286,-0.008375167,-4.80959E-06,-5.14251E-06,0,6.65071E-05
1.73,41.97065661,2.33519E-05,24.90764397,0.000106214,-0.008376072,-4.80543E-06,-5.13091E-06,0,6.65811E-05
1.74,42.21973301,2.31271E-05,24.90763659,0.000106143,-0.008376972,-4.80139E-06,-5.11911E-06,0,6.66519E-05
1.75,42.46880935,2.29046E-05,24.90763208,0.000106075,-0.008377868,-4.79747E-06,-5.10712E-06,0,6.67195E-05
1.76,42.71788566,2.26845E-05,24.90763044,0.000106008,-0.008378757,-4.79368E-06,-5.09496E-06,0,6.67839E-05
1.77,42.96696197,2.24667E-05,24.90763163,0.000105944,-0.008379639,-4.79003E-06,-5.08264E-06,0,6.68452E-05
1.78,43.21603831,2.22515E-05,24.90763565,0.000105881,-0.008380514,-4.7865E-06,-5.07017E-06,0,6.69036E-05
1.79,43.46511469,2.20387E-05,24.90764248,0.000105821,-0.008381381,-4.7831E-06,-5.05756E-06,0,6.69588E-05
1.8,43.71419116,2.18285E-05,24.90765209,0.000105763,-0.008382239,-4.77983E-06,-5.04482E-06,0,6.70111E-05
1.81,43.96326774,2.16209E-05,24.90766447,0.000105707,-0.008383089,-4.7767E-06,-5.03195E-06,0,6.70604E-05
1.82,44.21234446,2.1416E-05,24.90767961,0.000105653,-0.008383928,-4.77369E-06,-5.01897E-06,0,6.71066E-05
1.83,44.46142135,2.12138E-05,24.90769748,0.000105601,-0.008384758,-4.77082E-06,-5.00588E-06,0,6.71498E-05
1.84,44.71049842,2.10144E-05,24.90771806,0.000105551,-0.008385577,-4.76807E-06,-4.99269E-06,0,6.719E-05
1.85,44.95957572,2.08178E-05,24.90774135,0.000105503,-0.008386387,-4.76545E-06,-4.97941E-06,0,6.72271E-05
1.86,45.20865326,2.06241E-05,24.90776731,0.000105457,-0.008387186,-4.76295E-06,-4.96604E-06,0,6.72612E-05
1.87,45.45773107,2.04332E-05,24.90779594,0.000105413,-0.008387974,-4.76058E-06,-4.95259E-06,0,6.72921E-05
1.88,45.70680918,2.02453E-05,24.90782721,0.00010537,-0.008388752,-4.75832E-06,-4.93907E-06,0,6.73199E-05
1.89,45.95588762,2.00603E-05,24.90786111,0.00010533,-0.00838952,-4.75619E-06,-4.92547E-06,0,6.73444E-05
1.9,46.20496642,1.98783E-05,24.90789761,0.000105291,-0.008390277,-4.75417E-06,-4.91182E-06,0,6.73659E-05
1.91,46.45404558,1.96994E-05,24.90793671,0.000105254,-0.008391024,-4.75227E-06,-4.8981E-06,0,6.7384E-05
1.92,46.70312516,1.95235E-05,24.90797839,0.000105218,-0.008391761,-4.75048E-06,-4.88433E-06,0,6.7399E-05
1.93,46.95220516,1.93507E-05,24.90802261,0.000105183,-0.008392488,-4.7488E-06,-4.87052E-06,0,6.74106E-05
1.94,47.20128562,1.9181E-05,24.90806938,0.00010515,-0.008393206,-4.74723E-06,-4.85666E-06,0,6.7419E-05
1.95,47.45036656,1.90145E-05,24.90811867,0.000105118,-0.008393914,-4.74577E-06,-4.84276E-06,0,6.74241E-05
1.96,47.699448,1.88511E-05,24.90817046,0.000105088,-0.008394613,-4.74441E-06,-4.82883E-06,0,6.74258E-05
1.97,47.94852997,1.86909E-05,24.90822474,0.000105059,-0.008395304,-4.74315E-06,-4.81487E-06,0,6.74243E-05
1.98,48.1976125,1.85338E-05,24.90828149,0.00010503,-0.008395986,-4.74199E-06,-4.80088E-06,0,6.74194E-05
1.99,48.44669561,1.838E-05,24.90834068,0.000105003,-0.00839666,-4.74093E-06,-4.78688E-06,0,6.74112E-05
2,48.69577933,1.82294E-05,24.90840231,0.000104977,-0.008397326,-4.73997E-06,-4.77286E-06,0,6.73998E-05
2.01,48.94486367,1.8082E-05,24.90846636,0.000104951,-0.008397985,-4.7391E-06,-4.75883E-06,0,6.7385E-05
2.02,49.19394866,1.79379E-05,24.90853281,0.000104927,-0.008398637,-4.73832E-06,-4.7448E-06,0,6.7367E-05
2.03,49.44303433,1.7797E-05,24.90860163,0.000104903,-0.008399283,-4.73763E-06,-4.73077E-06,0,6.73458E-05
2.04,49.6921207,1.76594E-05,24.90867283,0.000104881,-0.008399922,-4.73704E-06,-4.71674E-06,0,6.73214E-05
2.05,49.94120779,1.75251E-05,24.90874637,0.000104859,-0.008400555,-4.73653E-06,-4.70273E-06,0,6.72939E-05
2.06,50.19029564,1.7394E-05,24.90882224,0.000104838,-0.008401182,-4.7361E-06,-4.68873E-06,0,6.72632E-05
2.07,50.43938425,1.72662E-05,24.90890042,0.000104817,-0.008401804,-4.73577E-06,-4.67476E-06,0,6.72295E-05
2.08,50.68847365,1.71417E-05,24.9089809,0.000104797,-0.00840242,-4.73551E-06,-4.66081E-06,0,6.71928E-05
2.09,50.93756387,1.70204E-05,24.90906366,0.000104778,-0.008403032,-4.73534E-06,-4.64689E-06,0,6.71532E-05
2.1,51.18665493,1.69024E-05,24.90914868,0.00010476,-0.008403639,-4.73525E-06,-4.63302E-06,0,6.71107E-05
2.11,51.43574685,1.67877E-05,24.90923595,0.000104742,-0.008404242,-4.73524E-06,-4.61919E-06,0,6.70654E-05
2.12,51.68483966,1.66762E-05,24.90932544,0.000104725,-0.008404841,-4.7353E-06,-4.6054E-06,0,6.70173E-05
2.13,51.93393337,1.6568E-05,24.90941715,0.000104709,-0.008405436,-4.73545E-06,-4.59168E-06,0,6.69666E-05
2.14,52.18302801,1.6463E-05,24.90951105,0.000104693,-0.008406027,-4.73567E-06,-4.57801E-06,0,6.69132E-05
2.15,52.4321236,1.63613E-05,24.90960714,0.000104679,-0.008406615,-4.73596E-06,-4.56441E-06,0,6.68574E-05
2.16,52.68122016,1.62628E-05,24.90970538,0.000104664,-0.008407199,-4.73633E-06,-4.55088E-06,0,6.67991E-05
2.17,52.93031771,1.61675E-05,24.90980577,0.000104651,-0.008407779,-4.73677E-06,-4.53743E-06,0,6.67385E-05
2.18,53.17941628,1.60755E-05,24.90990829,0.000104638,-0.008408357,-4.73729E-06,-4.52407E-06,0,6.66756E-05
2.19,53.42851589,1.59866E-05,24.91001292,0.000104626,-0.008408931,-4.73787E-06,-4.51079E-06,0,6.66105E-05
2.2,53.67761655,1.59009E-05,24.91011964,0.000104615,-0.008409503,-4.73852E-06,-4.4976E-06,0,6.65433E-05
2.21,53.92671829,1.58183E-05,24.91022845,0.000104604,-0.008410071,-4.73925E-06,-4.48451E-06,0,6.6474E-05
2.22,54.17582112,1.57389E-05,24.91033932,0.000104594,-0.008410636,-4.74004E-06,-4.47153E-06,0,6.64028E-05
2.23,54.42492508,1.56626E-05,24.91045223,0.000104585,-0.008411199,-4.7409E-06,-4.45866E-06,0,6.63297E-05
2.24,54.67403017,1.55894E-05,24.91056718,0.000104577,-0.008411758,-4.74182E-06,-4.44589E-06,0,6.62548E-05
2.25,54.92313643,1.55192E-05,24.91068414,0.000104569,-0.008412315,-4.74281E-06,-4.43325E-06,0,6.61782E-05
2.26,55.17224386,1.54522E-05,24.9108031,0.000104563,-0.008412868,-4.74386E-06,-4.42073E-06,0,6.60999E-05
2.27,55.4213525,1.53881E-05,24.91092403,0.000104557,-0.008413419,-4.74497E-06,-4.40834E-06,0,6.60202E-05
2.28,55.67046235,1.53271E-05,24.91104694,0.000104551,-0.008413967,-4.74614E-06,-4.39608E-06,0,6.59389E-05
2.29,55.91957344,1.5269E-05,24.91117179,0.000104547,-0.008414511,-4.74737E-06,-4.38395E-06,0,6.58561E-05
2.3,56.16868579,1.52139E-05,24.91129858,0.000104543,-0.008415052,-4.74867E-06,-4.37197E-06,0,6.57721E-05
2.31,56.41779942,1.51617E-05,24.91142728,0.000104541,-0.008415591,-4.75001E-06,-4.36012E-06,0,6.56868E-05
2.32,56.66691434,1.51125E-05,24.91155789,0.000104538,-0.008416126,-4.75142E-06,-4.34843E-06,0,6.56003E-05
2.33,56.91603058,1.50661E-05,24.91169038,0.000104537,-0.008416657,-4.75287E-06,-4.33688E-06,0,6.55126E-05
2.34,57.16514816,1.50225E-05,24.91182474,0.000104537,-0.008417186,-4.75438E-06,-4.32549E-06,0,6.54239E-05
2.35,57.41426708,1.49817E-05,24.91196095,0.000104537,-0.00841771,-4.75595E-06,-4.31426E-06,0,6.53342E-05
2.36,57.66338738,1.49437E-05,24.912099,0.000104538,-0.008418232,-4.75756E-06,-4.30318E-06,0,6.52435E-05
2.37,57.91250907,1.49085E-05,24.91223888,0.000104539,-0.008418749,-4.75922E-06,-4.29227E-06,0,6.5152E-05
2.38,58.16163217,1.48759E-05,24.91238056,0.000104542,-0.008419263,-4.76092E-06,-4.28152E-06,0,6.50596E-05
2.39,58.41075669,1.48461E-05,24.91252403,0.000104545,-0.008419773,-4.76267E-06,-4.27094E-06,0,6.49664E-05
2.4,58.65988265,1.48188E-05,24.91266927,0.000104548,-0.00842028,-4.76447E-06,-4.26053E-06,0,6.48726E-05
2.41,58.90901008,1.47942E-05,24.91281628,0.000104553,-0.008420782,-4.7663E-06,-4.25029E-06,0,6.4778E-05
2.42,59.15813898,1.47722E-05,24.91296502,0.000104558,-0.008421281,-4.76818E-06,-4.24023E-06,0,6.46829E-05
2.43,59.40726939,1.47526E-05,24.9131155,0.000104564,-0.008421775,-4.7701E-06,-4.23034E-06,0,6.45873E-05
2.44,59.6564013,1.47356E-05,24.91326769,0.00010457,-0.008422266,-4.77205E-06,-4.22063E-06,0,6.44911E-05
2.45,59.90553474,1.4721E-05,24.91342158,0.000104577,-0.008422752,-4.77404E-06,-4.21109E-06,0,6.43945E-05
2.46,60.15466974,1.47088E-05,24.91357714,0.000104584,-0.008423234,-4.77606E-06,-4.20174E-06,0,6.42974E-05
2.47,60.40380629,1.4699E-05,24.91373438,0.000104593,-0.008423712,-4.77811E-06,-4.19256E-06,0,6.42001E-05
2.48,60.65294443,1.46916E-05,24.91389326,0.000104601,-0.008424185,-4.78019E-06,-4.18357E-06,0,6.41023E-05
2.49,60.90208416,1.46864E-05,24.91405378,0.00010461,-0.008424655,-4.78231E-06,-4.17476E-06,0,6.40044E-05
2.5,61.15122551,1.46835E-05,24.91421592,0.00010462,-0.008425119,-4.78444E-06,-4.16614E-06,0,6.39062E-05
2.51,61.40036849,1.46828E-05,24.91437967,0.00010463,-0.00842558,-4.78661E-06,-4.1577E-06,0,6.38079E-05
2.52,61.64951311,1.46842E-05,24.91454501,0.00010464,-0.008426036,-4.7888E-06,-4.14945E-06,0,6.37094E-05
2.53,61.89865939,1.46878E-05,24.91471192,0.000104651,-0.008426488,-4.79101E-06,-4.14138E-06,0,6.36108E-05
2.54,62.14780735,1.46935E-05,24.91488039,0.000104663,-0.008426935,-4.79324E-06,-4.1335E-06,0,6.35123E-05
2.55,62.39695701,1.47012E-05,24.91505041,0.000104674,-0.008427378,-4.79548E-06,-4.1258E-06,0,6.34137E-05
2.56,62.64610837,1.47109E-05,24.91522196,0.000104686,-0.008427816,-4.79775E-06,-4.11829E-06,0,6.33151E-05
2.57,62.89526145,1.47226E-05,24.91539502,0.000104699,-0.00842825,-4.80003E-06,-4.11097E-06,0,6.32167E-05
2.58,63.14441627,1.47362E-05,24.91556958,0.000104712,-0.00842868,-4.80233E-06,-4.10384E-06,0,6.31183E-05
2.59,63.39357285,1.47517E-05,24.91574563,0.000104725,-0.008429105,-4.80464E-06,-4.09689E-06,0,6.30202E-05
2.6,63.64273119,1.4769E-05,24.91592315,0.000104738,-0.008429526,-4.80696E-06,-4.09013E-06,0,6.29222E-05
2.61,63.89189131,1.4788E-05,24.91610213,0.000104752,-0.008429942,-4.80929E-06,-4.08355E-06,0,6.28245E-05
2.62,64.14105324,1.48089E-05,24.91628255,0.000104765,-0.008430354,-4.81163E-06,-4.07717E-06,0,6.27271E-05
2.63,64.39021697,1.48314E-05,24.91646439,0.00010478,-0.008430762,-4.81397E-06,-4.07096E-06,0,6.263E-05
2.64,64.63938253,1.48555E-05,24.91664765,0.000104794,-0.008431166,-4.81633E-06,-4.06495E-06,0,6.25333E-05
2.65,64.88854993,1.48813E-05,24.9168323,0.000104808,-0.008431565,-4.81868E-06,-4.05912E-06,0,6.24369E-05
2.66,65.13771918,1.49086E-05,24.91701834,0.000104823,-0.00843196,-4.82104E-06,-4.05347E-06,0,6.2341E-05
2.67,65.3868903,1.49375E-05,24.91720574,0.000104838,-0.00843235,-4.8234E-06,-4.04801E-06,0,6.22457E-05
2.68,65.6360633,1.49678E-05,24.91739451,0.000104853,-0.008432737,-4.82576E-06,-4.04273E-06,0,6.21508E-05
2.69,65.88523819,1.49996E-05,24.91758461,0.000104868,-0.008433119,-4.82813E-06,-4.03763E-06,0,6.20565E-05
2.7,66.134415,1.50327E-05,24.91777603,0.000104884,-0.008433498,-4.83048E-06,-4.03271E-06,0,6.19627E-05
2.71,66.38359372,1.50672E-05,24.91796877,0.000104899,-0.008433872,-4.83284E-06,-4.02798E-06,0,6.18696E-05
2.72,66.63277438,1.5103E-05,24.91816281,0.000104915,-0.008434242,-4.83519E-06,-4.02342E-06,0,6.17772E-05
2.73,66.88195698,1.514E-05,24.91835813,0.00010493,-0.008434608,-4.83754E-06,-4.01905E-06,0,6.16854E-05
2.74,67.13114154,1.51783E-05,24.91855471,0.000104946,-0.00843497,-4.83988E-06,-4.01485E-06,0,6.15944E-05
2.75,67.38032808,1.52177E-05,24.91875256,0.000104962,-0.008435328,-4.84222E-06,-4.01082E-06,0,6.15041E-05
2.76,67.6295166,1.52582E-05,24.91895164,0.000104978,-0.008435683,-4.84454E-06,-4.00698E-06,0,6.14146E-05
2.77,67.87870711,1.52999E-05,24.91915195,0.000104994,-0.008436033,-4.84686E-06,-4.0033E-06,0,0.000061326
2.78,68.12789964,1.53426E-05,24.91935348,0.00010501,-0.00843638,-4.84917E-06,-3.9998E-06,0,6.12381E-05
2.79,68.37709419,1.53862E-05,24.91955621,0.000105026,-0.008436722,-4.85146E-06,-3.99647E-06,0,6.11513E-05
2.8,68.62629077,1.54309E-05,24.91976012,0.000105042,-0.008437061,-4.85374E-06,-3.99331E-06,0,6.10652E-05
2.81,68.87548939,1.54764E-05,24.9199652,0.000105058,-0.008437397,-4.85601E-06,-3.99032E-06,0,6.09801E-05
2.82,69.12469008,1.55228E-05,24.92017144,0.000105074,-0.008437728,-4.85827E-06,-3.98749E-06,0,6.08961E-05
2.83,69.37389283,1.557E-05,24.92037883,0.00010509,-0.008438056,-4.86051E-06,-3.98483E-06,0,6.08129E-05
2.84,69.62309766,1.56181E-05,24.92058735,0.000105106,-0.00843838,-4.86274E-06,-3.98234E-06,0,6.07308E-05
2.85,69.87230458,1.56669E-05,24.92079698,0.000105122,-0.008438701,-4.86494E-06,-3.98E-06,0,6.06497E-05
2.86,70.1215136,1.57164E-05,24.92100772,0.000105139,-0.008439018,-4.86714E-06,-3.97783E-06,0,6.05697E-05
2.87,70.37072473,1.57665E-05,24.92121955,0.000105155,-0.008439331,-4.86931E-06,-3.97581E-06,0,6.04908E-05
2.88,70.61993799,1.58173E-05,24.92143246,0.000105171,-0.008439641,-4.87147E-06,-3.97395E-06,0,6.04129E-05
2.89,70.86915339,1.58687E-05,24.92164643,0.000105187,-0.008439947,-4.8736E-06,-3.97225E-06,0,6.03362E-05
2.9,71.11837093,1.59206E-05,24.92186146,0.000105203,-0.008440249,-4.87572E-06,-3.97069E-06,0,6.02606E-05
2.91,71.36759062,1.59731E-05,24.92207752,0.000105218,-0.008440549,-4.87781E-06,-3.96929E-06,0,6.01862E-05
2.92,71.61681248,1.6026E-05,24.9222946,0.000105234,-0.008440844,-4.87988E-06,-3.96804E-06,0,6.01129E-05
2.93,71.86603652,1.60794E-05,24.9225127,0.00010525,-0.008441136,-4.88194E-06,-3.96693E-06,0,6.00408E-05
2.94,72.11524753,1.61328E-05,24.915128,0.000105203,-0.008419247,-4.79726E-06,-3.96576E-06,0,5.997E-05
2.95,72.36419753,1.61878E-05,24.86802397,0.000105173,-0.00830295,-4.80753E-06,-3.96866E-06,0,5.99146E-05
2.96,72.61251256,1.62415E-05,24.79182881,0.000104691,-0.008043414,-4.84256E-06,-3.97066E-06,0,6.01351E-05
2.97,72.85999694,1.62942E-05,24.70403479,0.00010429,-0.007622662,-4.8724E-06,-3.97087E-06,0,5.98075E-05
2.98,73.10658472,1.63476E-05,24.61350876,0.00010406,-0.007051293,-4.92401E-06,-3.97198E-06,0,5.96341E-05
2.99,73.35227284,1.64033E-05,24.52465383,0.000104016,-0.006355621,-4.99566E-06,-3.97669E-06,0,5.96786E-05
3,73.59709131,1.64618E-05,24.43980707,0.000104139,-0.005570676,-5.084E-06,-3.98817E-06,0,6.00491E-05
3.01,73.8410838,1.65225E-05,24.35942537,0.000104395,-0.004732146,-5.18205E-06,-4.00991E-06,0,6.08709E-05
3.02,74.08429317,1.65836E-05,24.28307518,0.000104788,-0.003866097,-5.26518E-06,-4.04493E-06,0,6.22196E-05
3.03,74.32675545,1.66433E-05,24.20975025,0.000105371,-0.002991506,-5.35219E-06,-4.09398E-06,0,6.41093E-05
3.04,74.56849118,1.67008E-05,24.13731307,0.000106072,-0.002121468,-5.44489E-06,-4.15047E-06,0,6.60819E-05
3.05,74.80949598,1.67555E-05,24.06319068,0.000106626,-0.001263843,-5.54309E-06,-4.20271E-06,0,6.73538E-05
3.06,75.04974504,1.6807E-05,23.98611948,0.000106737,-0.000423026,-5.65288E-06,-4.24105E-06,0,6.75384E-05
3.07,75.28921034,1.68541E-05,23.90664608,0.000106282,0.00039753,-5.78415E-06,-4.26244E-06,0,6.6874E-05
3.08,75.52787502,1.68952E-05,23.82627815,0.000105325,0.00119359,-5.94648E-06,-4.26948E-06,0,6.58494E-05
3.09,75.76573828,1.69291E-05,23.74661342,0.000104031,0.001959693,-6.14678E-06,-4.26769E-06,0,6.48828E-05
3.1,76.0028136,1.69545E-05,23.66882995,0.000102592,0.002689537,-6.38816E-06,-4.26298E-06,0,6.42458E-05
3.11,76.2391224,1.6971E-05,23.59328304,0.000101158,0.003376868,-6.66975E-06,-4.25895E-06,0,6.39996E-05
3.12,76.47468447,1.69787E-05,23.51928967,9.97535E-05,0.004016749,-6.98742E-06,-4.25432E-06,0,6.38937E-05
3.13,76.70950887,1.69782E-05,23.44551101,9.82337E-05,0.004606657,-7.33463E-06,-4.24283E-06,0,6.34125E-05
3.14,76.94359162,1.69697E-05,23.37083199,9.63551E-05,0.005146566,-7.70365E-06,-4.21657E-06,0,6.20881E-05
3.15,77.17692155,1.69528E-05,23.29497873,9.39269E-05,0.00563806,-8.08576E-06,-4.17006E-06,0,5.97925E-05
3.16,77.40948898,1.69263E-05,23.21846385,9.08687E-05,0.006083093,-8.46389E-06,-4.10176E-06,0,5.67086E-05
3.17,77.64129147,1.68888E-05,23.14213678,8.71887E-05,0.006482913,-8.82009E-06,-4.01324E-06,0,5.31123E-05
3.18,77.8723348,1.68384E-05,23.0667261,8.29448E-05,0.006838215,-9.13781E-06,-3.90709E-06,0,4.92187E-05
3.19,78.10263007,1.67735E-05,22.99253118,7.81985E-05,0.00714894,-9.40348E-06,-3.78432E-06,0,4.50454E-05
3.2,78.3321887,1.66926E-05,22.91931647,7.2923E-05,0.007414921,-9.6044E-06,-3.64287E-06,0,4.03793E-05
3.21,78.56101773,1.65943E-05,22.8465045,6.70125E-05,0.00763673,-9.73086E-06,-3.47795E-06,0,3.48786E-05
3.22,78.78911829,1.6477E-05,22.77355354,6.03246E-05,0.007815869,-9.77776E-06,-3.28431E-06,0,2.82671E-05
3.23,79.01648761,1.6339E-05,22.70025349,5.27631E-05,0.007954497,-9.74465E-06,-3.05905E-06,0,2.05194E-05
3.24,79.24312273,1.61779E-05,22.62676545,4.43352E-05,0.008054947,-9.6354E-06,-2.80301E-06,0,1.18682E-05
3.25,79.46902351,1.59917E-05,22.55345336,3.51526E-05,0.008119337,-9.4575E-06,-2.52022E-06,0,2.67191E-06
3.26,79.69419352,1.57783E-05,22.48065651,2.53903E-05,0.008149458,-9.22109E-06,-2.21628E-06,0,-6.74315E-06
3.27,79.91863885,1.55364E-05,22.40852075,1.52297E-05,0.008146924,-8.93834E-06,-1.89633E-06,0,-1.61894E-05
3.28,80.14236583,1.52655E-05,22.3369528,4.81397E-06,0.008113448,-8.62241E-06,-1.56389E-06,0,-2.56363E-05
3.29,80.36537898,1.49654E-05,22.26570804,-5.76542E-06,0.008051098,-8.28687E-06,-1.22087E-06,0,-3.51482E-05
3.3,80.58768027,1.46364E-05,22.19455063,-1.64474E-05,0.007962393,-7.94472E-06,-8.68729E-07,0,-4.47628E-05
3.31,80.80926994,1.42791E-05,22.1233811,-2.71614E-05,0.007850178,-7.60756E-06,-5.09778E-07,0,-5.44E-05
3.32,81.03014805,1.38943E-05,22.05226267,-3.78028E-05,0.007717381,-7.28492E-06,-1.47799E-07,0,-6.38669E-05
3.33,81.25031589,1.34831E-05,21.98135508,-4.82333E-05,0.007566793,-6.98375E-06,2.12302E-07,0,-7.29251E-05
3.34,81.46977638,1.30467E-05,21.91081285,-5.83061E-05,0.007400963,-6.70848E-06,5.6547E-07,0,-8.13807E-05
3.35,81.6885336,1.25871E-05,21.84070574,-6.78951E-05,0.007222231,-6.46164E-06,9.0749E-07,0,-8.91347E-05
3.36,81.90659182,1.21064E-05,21.77099686,-7.69136E-05,0.007032845,-6.244E-06,1.2355E-06,0,-9.61837E-05
3.37,82.12396303,1.16071E-05,21.70628014,-8.52907E-05,0.006814757,-6.00665E-06,1.54852E-06,0,-0.000102579
3.38,82.34085164,1.10917E-05,21.6812514,-9.2855E-05,0.006498343,-5.74278E-06,1.84397E-06,0,-0.000108445
3.39,82.55776505,1.05704E-05,21.70761776,-9.85348E-05,0.006020777,-5.45249E-06,2.11045E-06,0,-0.000112637
3.4,82.77505457,1.00537E-05,21.74976413,-0.000102707,0.005352191,-5.0805E-06,2.33887E-06,0,-0.000114461
3.41,82.99269878,9.54673E-06,21.77379969,-0.000105586,0.004521632,-4.62224E-06,2.52617E-06,0,-0.000114694
3.42,83.2104194,9.05198E-06,21.76552995,-0.000107242,0.003599809,-4.09862E-06,2.67198E-06,0,-0.00011392
3.43,83.4279564,8.57286E-06,21.74130626,-0.000107422,0.002661145,-3.52637E-06,2.77113E-06,0,-0.000112094
3.44,83.64527252,8.11411E-06,21.72489179,-0.000105989,0.001738133,-2.91426E-06,2.8145E-06,0,-0.000108338
3.45,83.86252456,7.67815E-06,21.72893843,-0.000103333,0.000826425,-2.29004E-06,2.79816E-06,0,-0.000102401
3.46,84.07989548,7.26342E-06,21.74611928,-9.98437E-05,-8.80744E-05,-1.69428E-06,2.72881E-06,0,-9.50555E-05
3.47,84.29743715,6.86722E-06,21.76057362,-9.57114E-05,-0.001005112,-1.1684E-06,2.61866E-06,0,-8.73978E-05
3.48,84.51506406,6.48854E-06,21.7625357,-9.08143E-05,-0.001907155,-7.44725E-07,2.47658E-06,0,-7.97106E-05
3.49,84.73265482,6.12936E-06,21.75473177,-8.4936E-05,-0.002771545,-4.40844E-07,2.30511E-06,0,-7.15631E-05
3.5,84.95015924,5.7937E-06,21.74697905,-7.79709E-05,-0.003585318,-2.59958E-07,2.1037E-06,0,-6.24528E-05
3.51,85.16761965,5.4858E-06,21.74657302,-7.00015E-05,-0.004348968,-1.94916E-07,1.87327E-06,0,-5.22822E-05
3.52,85.38511431,5.20892E-06,21.75311558,-6.1226E-05,-0.005069655,-2.33142E-07,1.61789E-06,1E-12,-4.14823E-05
3.53,85.60268534,4.96517E-06,21.76072084,-5.18494E-05,-0.005751587,-3.59011E-07,1.34305E-06,2E-12,-3.06411E-05
3.54,85.82031443,4.75595E-06,21.76417909,-4.2003E-05,-0.006392169,-5.5442E-07,1.05323E-06,3E-12,-2.02083E-05
3.55,86.03795283,4.58238E-06,21.76290917,-3.1767E-05,-0.00698538,-7.99001E-07,7.51138E-07,1E-12,-1.03963E-05
3.56,86.25556806,4.44533E-06,21.76026147,-2.12328E-05,-0.007527818,-1.07188E-06,4.38674E-07,-2E-12,-1.29417E-06
3.57,86.47316574,4.34504E-06,21.75983557,-1.05443E-05,-0.008021459,-1.35453E-06,1.18175E-07,-6E-12,8.0074E-06
3.58,86.6907755,4.28073E-06,21.76255552,1.30009E-07,-0.008470976,-1.63216E-06,-2.07209E-07,-9E-12,1.83178E-05
3.59,86.90842124,4.25082E-06,21.76658732,1.06481E-05,-0.008880925,-1.89512E-06,-5.33763E-07,-1E-11,3.04223E-05
3.6,87.12610338,4.25338E-06,21.76950848,2.09249E-05,-0.009252941,-2.13832E-06,-8.57757E-07,0,4.47087E-05
3.61,87.34380447,4.28676E-06,21.77039933,3.09225E-05,-0.009586105,-2.35992E-06,-1.17574E-06,1.3E-11,5.99954E-05
3.62,87.56150772,4.34973E-06,21.7702062,4.06152E-05,-0.009879279,-2.5604E-06,-1.48454E-06,2.7E-11,7.32356E-05
3.63,87.7792104,4.4414E-06,21.77052126,4.99536E-05,-0.010133181,-2.73917E-06,-1.78112E-06,3.5E-11,8.09119E-05
3.64,87.99692257,4.56083E-06,21.77212836,5.88473E-05,-0.010350144,-2.89967E-06,-2.06252E-06,2.2E-11,7.71239E-05
3.65,88.21465584,4.70644E-06,21.77458688,6.71309E-05,-0.010532569,-3.04915E-06,-2.32621E-06,-2E-11,6.2372E-05
3.66,88.43241371,4.87508E-06,21.77688291,7.45906E-05,-0.010681983,-3.19586E-06,-2.57079E-06,-7.1E-11,4.71237E-05
3.67,88.65019077,5.06182E-06,21.77838443,8.10732E-05,-0.010798983,-3.34865E-06,-2.79653E-06,-1.22E-10,4.42858E-05
3.68,88.86797926,5.26081E-06,21.77925289,8.66129E-05,-0.010884113,-3.51424E-06,-3.00507E-06,-1.35E-10,6.72872E-05
3.69,89.08577584,5.46739E-06,21.78011763,9.14986E-05,-0.010938759,-3.69326E-06,-3.19796E-06,-2.2E-11,0.000125294
3.7,89.30358324,5.68091E-06,21.78145572,9.62651E-05,-0.010965295,-3.87529E-06,-3.37456E-06,1.53E-10,0.000213626
3.71,89.52140649,5.90741E-06,21.78324538,0.00010156,-0.010966563,-4.04423E-06,-3.53011E-06,3.42E-10,0.000291944
3.72,89.73924836,6.16011E-06,21.78510371,0.000107752,-0.010945166,-4.17561E-06,-3.65519E-06,4.82E-10,0.000289976
3.73,89.9571076,6.45446E-06,21.78668204,0.000114355,-0.010903221,-4.25247E-06,-3.73908E-06,4.11E-10,0.000158674
3.74,90.17498091,6.79725E-06,21.78793824,0.000119751,-0.010842603,-4.28197E-06,-3.77695E-06,-1.53E-10,-0.000113547
3.75,90.39286604,7.17424E-06,21.78909709,0.000121561,-0.010765339,-4.30679E-06,-3.77811E-06,-8.59E-10,-0.000415767
3.76,90.61076337,7.54393E-06,21.79040516,0.000117825,-0.010673772,-4.39879E-06,-3.77008E-06,-1.566E-09,-0.000578501
3.77,90.82867487,7.84673E-06,21.7919263,0.000108685,-0.010570403,-4.62924E-06,-3.79256E-06,-1.859E-09,-0.000414387
3.78,91.04660218,8.03173E-06,21.79353305,9.75976E-05,-0.010457589,-5.0203E-06,-3.87985E-06,-6.79E-10,0.000264292
3.79,91.26454524,8.09549E-06,21.7950548,9.13781E-05,-0.010337368,-5.49391E-06,-4.03542E-06,1.652E-09,0.001676563
3.8,91.48250276,8.11921E-06,21.79642614,9.8776E-05,-0.010211496,-5.83722E-06,-4.20727E-06,4.291E-09,0.004136649
3.81,91.70047349,8.29595E-06,21.79771531,0.000129536,-0.01008162,-5.67004E-06,-4.26895E-06,6.608E-09,0.007728616
3.82,91.91845718,8.96398E-06,21.79903762,0.000195357,-0.0099494,-4.4053E-06,-3.99687E-06,7.107E-09,0.012625272
3.83,92.13645455,1.06547E-05,21.80045084,0.000310637,-0.009816492,-1.20806E-06,-3.03834E-06,-6.61E-10,0.018965391
3.84,92.35446639,1.41584E-05,21.80192156,0.000493499,-0.009684429,5.06002E-06,-8.68797E-07,-1.0219E-08,0.026784252
3.85,92.57249292,2.06047E-05,21.80337352,0.000765403,-0.009554521,1.58833E-05,3.25932E-06,-2.0069E-08,0.036021578
3.86,92.79053364,3.15392E-05,21.80475959,0.001148484,-0.009427853,3.30953E-05,1.0363E-05,-2.5521E-08,0.04657775
3.87,93.00858793,4.8974E-05,21.80609341,0.001661761,-0.009305354,5.88309E-05,2.17559E-05,-1.4565E-08,0.058397374
3.88,93.2266555,7.54064E-05,21.80742414,0.002318233,-0.009187865,9.54367E-05,3.90522E-05,1.6554E-08,0.071473508
3.89,93.44473652,0.000113817,21.80878801,0.003123752,-0.009076162,0.000145356,6.41533E-05,5.3326E-08,0.08555732
3.9,93.66283135,0.000167651,21.81018147,0.004075817,-0.008970917,0.00021098,9.92219E-05,9.01E-08,0.100573229
3.91,93.88094014,0.000240786,21.81157295,0.005162859,-0.008872648,0.000294499,0.000146637,9.8459E-08,0.116440041
3.92,94.09906269,0.000337484,21.81293464,0.006365926,-0.008781714,0.000397784,0.000208943,9.541E-09,0.133071741
3.93,94.31719868,0.000462361,21.81426395,0.007660584,-0.008698342,0.000522297,0.000288795,-1.18652E-07,0.150376604
3.94,94.53534786,0.000620358,21.81557933,0.009018734,-0.00862267,0.000669028,0.000388915,-2.55934E-07,0.168256869
3.95,94.75351018,0.000816721,21.81689962,0.010409949,-0.008554766,0.000838508,0.000512043,-3.5049E-07,0.186679426
3.96,94.97168571,0.001056984,21.81822818,0.011803021,-0.00849462,0.001030823,0.000660901,-2.71803E-07,0.205656023
3.97,95.18987447,0.001346963,21.81955307,0.013167726,-0.008442137,0.001245658,0.000838175,1.43475E-07,0.224923775
3.98,95.40807632,0.001692758,21.82085964,0.014473935,-0.008397132,0.001482352,0.001046511,6.5596E-07,0.244393549
3.99,95.62629102,0.002100731,21.82214246,0.015690801,-0.00835934,0.001739974,0.001288475,1.16848E-06,0.263979738
4,95.84451832,0.002577485,21.82340685,0.016788091,-0.008328447,0.0020174,0.001566511,1.35316E-06,0.283603454
4.01,96.06275803,0.003129846,21.82466135,0.017737211,-0.008304116,0.002313353,0.001882902,3.85477E-07,0.303192502
4.02,96.28101004,0.003764839,21.82590931,0.018511624,-0.00828599,0.002626473,0.002239754,-1.33352E-06,0.322680845
4.03,96.49927421,0.00448968,21.82714662,0.019087397,-0.008273683,0.002955378,0.002638973,-3.24677E-06,0.342081487
4.04,96.71755033,0.005311748,21.828366,0.01944399,-0.008266784,0.00329871,0.00308225,-4.81474E-06,0.361428746
4.05,96.93583811,0.006238587,21.82956287,0.019565266,-0.008264867,0.003655183,0.003571062,-4.71483E-06,0.38051166
4.06,97.15413724,0.007277896,21.83073771,0.019438484,-0.008267498,0.004023606,0.004106671,9.17635E-07,0.39928664
4.07,97.37244741,0.008437511,21.83189377,0.019052857,-0.008274252,0.004402885,0.004690129,7.96658E-06,0.417715444
4.08,97.59076834,0.009725374,21.83303313,0.018399778,-0.008284709,0.004792011,0.005322267,1.51091E-05,0.435765571
4.09,97.80909972,0.011149512,21.83415467,0.017473021,-0.008298456,0.005190048,0.006003705,1.86016E-05,0.453409948
4.1,98.02744122,0.012718014,21.83525508,0.016268947,-0.008315082,0.005596109,0.006734846,8.77701E-06,0.470626702
4.11,98.24579244,0.014439013,21.83633145,0.014786681,-0.008334184,0.00600934,0.007515888,-1.42666E-05,0.487485687
4.12,98.46415297,0.016320667,21.8373829,0.013028727,-0.008355365,0.006428916,0.008346831,-4.09287E-05,0.504037277
4.13,98.68252235,0.01837116,21.83841016,0.01100147,-0.008378243,0.006854045,0.009227501,-6.61564E-05,0.52012382
4.14,98.90090015,0.0205987,21.83941412,0.008713687,-0.008402454,0.00728395,0.010157568,-7.17914E-05,0.535739194
4.15,99.11928589,0.023011495,21.8403945,0.006175032,-0.008427651,0.007717852,0.011136556,2.63351E-07,0.550879847
4.16,99.33767909,0.025617736,21.84134984,0.003396174,-0.008453511,0.008154965,0.012163853,9.51358E-05,0.565545242
4.17,99.5560792,0.028425577,21.84227849,0.000388943,-0.008479726,0.008594479,0.013238717,0.000194664,0.5797377
4.18,99.77448566,0.031443118,21.84317957,-0.002833606,-0.008506013,0.009035561,0.014360287,0.000255762,0.593462105
4.19,99.99289788,0.034678395,21.84405311,-0.006257176,-0.008532111,0.009477363,0.015527598,0.000168427,0.606826174
4.2,100.2113153,0.038139371,21.84489942,-0.009865801,-0.008557788,0.009919025,0.016739598,-0.000140312,0.619872788
4.21,100.4297371,0.041833937,21.8457185,-0.013641682,-0.008582833,0.010359708,0.017995166,-0.000511817,0.632475932
4.22,100.6481629,0.045769915,21.84650981,-0.017566674,-0.008607062,0.010798603,0.019293134,-0.000883338,0.644643915
4.23,100.8665918,0.04995504,21.84727259,-0.021623565,-0.008630318,0.011234939,0.02063229,-0.000987676,0.656384608
4.24,101.0850232,0.054396959,21.84800531,-0.025789902,-0.008652463,0.011667993,0.022011396,-0.000166584,0.667705993
4.25,101.3034562,0.059103343,21.84870716,-0.03003253,-0.008673385,0.012097232,0.023429276,0.001109674,0.678612343
4.26,101.5218902,0.064081907,21.84937815,-0.034327817,-0.008693,0.012522384,0.024884842,0.002496425,0.689098923
4.27,101.7403242,0.069340318,21.85001811,-0.038660967,-0.008711244,0.012943296,0.026377053,0.00388308,0.699276921
4.28,101.9587574,0.074886137,21.85062668,-0.043021892,-0.008728079,0.013359839,0.027904892,0.00526905,0.70915556
4.29,102.177189,0.080726791,21.85120367,-0.047402238,-0.008743482,0.01377184,0.029467351,0.006653358,0.718616831
4.3,102.395618,0.086869564,21.8517493,-0.051795896,-0.008757357,0.014178808,0.031063439,0.008036951,0.727666992
4.31,102.6140434,0.093321562,21.85226435,-0.056199174,-0.00876975,0.014580577,0.032692165,0.009421046,0.73631571
4.32,102.8324645,0.100089712,21.85274962,-0.060608197,-0.008780741,0.014976697,0.034352541,0.01058323,0.744574811
4.33,103.0508801,0.107180756,21.8532056,-0.06501958,-0.008790384,0.015366542,0.036043586,0.010954676,0.752457389
4.34,103.2692893,0.114601255,21.85363237,-0.06943008,-0.008798735,0.015749407,0.037764324,0.010738399,0.759977462
4.35,103.4876911,0.122357584,21.85403008,-0.073836466,-0.008805872,0.016124675,0.039513795,0.01036784,0.767274846
4.36,103.7060845,0.130455942,21.85439903,-0.078234583,-0.008811896,0.016491741,0.041291042,0.010011881,0.774345147
4.37,103.9244684,0.138902361,21.85473963,-0.082618936,-0.008816929,0.016850081,0.043095104,0.009732924,0.781092727
4.38,104.1428417,0.147702719,21.85505229,-0.086983531,-0.008821103,0.017199281,0.044925005,0.009753408,0.787532802
4.39,104.3612034,0.156862734,21.85533751,-0.091322539,-0.008824553,0.017539039,0.046779759,0.009844193,0.793681911
4.4,104.5795524,0.166387962,21.85559591,-0.095630316,-0.008827413,0.017869158,0.048658378,0.009942927,0.799555805
4.41,104.7978876,0.176283802,21.85582843,-0.099900421,-0.008829814,0.018189545,0.050559884,0.010028975,0.805168929
4.42,105.0162078,0.186555497,21.85603604,-0.104127507,-0.008831883,0.018500201,0.052483307,0.010068036,0.81053588
4.43,105.2345119,0.197208125,21.85621942,-0.108307945,-0.008833738,0.018801197,0.054427705,0.01005629,0.815809267
4.44,105.4527987,0.208246592,21.85637902,-0.112437363,-0.008835492,0.019092676,0.056392157,0.010030608,0.82095799
4.45,105.6710672,0.219675655,21.85651516,-0.116510332,-0.008837251,0.019374848,0.058375768,0.01000519,0.825897034
4.46,105.889316,0.231499931,21.8566283,-0.120521701,-0.008839113,0.019647964,0.060377679,0.0099849,0.830637344
4.47,106.1075441,0.243723896,21.85671909,-0.124467337,-0.008841169,0.019912312,0.062397062,0.009983541,0.83518919
4.48,106.3257502,0.256351883,21.85678832,-0.128343985,-0.008843501,0.020168192,0.064433124,0.009988377,0.839561396
4.49,106.5439331,0.269388083,21.85683681,-0.132149089,-0.008846184,0.020415915,0.066485103,0.009994555,0.843762093
4.5,106.7620915,0.282836542,21.8568653,-0.135880583,-0.008849281,0.020655784,0.068552264,0.010000203,0.8477992
4.51,106.9802244,0.296701167,21.85687444,-0.139536635,-0.008852846,0.020888085,0.070633894,0.010003645,0.851833823
4.52,107.1983304,0.310985727,21.85686469,-0.143114756,-0.008856923,0.021113103,0.072729306,0.010003585,0.855803036
4.53,107.4164082,0.325693873,21.85683655,-0.146611587,-0.008861545,0.021331108,0.074837847,0.010002566,0.859631002
4.54,107.6344567,0.340829147,21.85679062,-0.150024536,-0.008866735,0.021542336,0.076958899,0.010001601,0.863323789
4.55,107.8524746,0.356394974,21.85672755,-0.153351965,-0.008872508,0.021747057,0.079091879,0.01000071,0.866887138
4.56,108.0704605,0.372394668,21.85664798,-0.156593013,-0.008878872,0.021945493,0.081236234,0.009999954,0.870325529
4.57,108.2884133,0.388831425,21.85655256,-0.159747398,-0.008885825,0.022137836,0.083391437,0.00999929,0.873642855
4.58,108.5063317,0.405708327,21.85644194,-0.1628152,-0.008893361,0.022324252,0.085556983,0.009998683,0.876842679
4.59,108.7242143,0.423028344,21.8563168,-0.165796698,-0.008901465,0.022504886,0.087732391,0.009998202,0.880097902
4.6,108.9420599,0.440794338,21.85617763,-0.168691484,-0.008910119,0.022679886,0.089917202,0.009998109,0.883308587
4.61,109.1598672,0.45900908,21.85602494,-0.171498461,-0.008919297,0.022849398,0.092110986,0.009998875,0.88641029
4.62,109.3776349,0.477675255,21.85585926,-0.174217211,-0.008928972,0.023013571,0.094313345,0.00999993,0.889405006
4.63,109.5953617,0.496795461,21.85568111,-0.176848306,-0.008939109,0.02317255,0.09652391,0.010001034,0.89229465
4.64,109.8130463,0.516372202,21.85549101,-0.179393051,-0.008949673,0.023326475,0.09874233,0.010001906,0.895080209
4.65,110.0306873,0.536407892,21.85528957,-0.181853239,-0.008960625,0.023475476,0.100968275,0.01000183,0.897762336
4.66,110.2482836,0.55690485,21.85507743,-0.184230974,-0.008971925,0.023619669,0.103201431,0.010001042,0.900341621
4.67,110.4658337,0.577865302,21.85485524,-0.186528491,-0.00898353,0.023759157,0.105441497,0.010000102,0.903007497
4.68,110.6833363,0.599291387,21.85462343,-0.188747216,-0.008995399,0.023894055,0.107688187,0.00999925,0.90561896
4.69,110.9007901,0.621185173,21.85438243,-0.19088783,-0.009007487,0.024024481,0.109941236,0.009998678,0.908127947
4.7,111.1181939,0.643548659,21.85413268,-0.192951662,-0.009019751,0.024150558,0.112200403,0.009999099,0.91053406
4.71,111.3355463,0.66638377,21.85387461,-0.194940813,-0.009032146,0.024272408,0.114465462,0.009999785,0.91283713
4.72,111.5528459,0.689692359,21.85360871,-0.196857936,-0.009044629,0.024390149,0.116736199,0.010000544,0.91503627
4.73,111.7700915,0.7134762,21.85333552,-0.198706021,-0.009057158,0.02450389,0.119012411,0.010001123,0.917130528
4.74,111.9872817,0.73773699,21.85305565,-0.200488207,-0.009069692,0.024613725,0.121293901,0.010000903,0.919119145
4.75,112.2044153,0.762476349,21.85276968,-0.202207608,-0.009082193,0.024719738,0.123580474,0.009999791,0.921213106
4.76,112.4214909,0.787695824,21.85247796,-0.203866294,-0.009094624,0.024822022,0.125871944,0.009998467,0.923225844
4.77,112.6385071,0.813396904,21.85218087,-0.205465476,-0.009106948,0.024920676,0.128168137,0.009997206,0.925130522
4.78,112.8554628,0.839581026,21.85187878,-0.207006993,-0.009119133,0.025015801,0.130468889,0.00999656,0.926926167
4.79,113.0723565,0.866249565,21.85157207,-0.208493288,-0.009131147,0.025107494,0.132774045,0.009998008,0.928612202
4.8,113.2891869,0.893403832,21.85126118,-0.209927183,-0.009142961,0.025195848,0.135083456,0.010000199,0.930187467
4.81,113.5059528,0.921045077,21.85094661,-0.211311657,-0.009154549,0.025280948,0.137396968,0.010002588,0.931650978
4.82,113.7226528,0.949174481,21.85062894,-0.212649688,-0.009165887,0.025362861,0.13971443,0.010004593,0.933002127
4.83,113.9392857,0.97779316,21.85030869,-0.213944084,-0.009176954,0.025441645,0.142035684,0.010004952,0.934477092
4.84,114.1558501,1.00690217,21.84998616,-0.215196398,-0.009187733,0.025517372,0.144360575,0.010002574,0.93584059
4.85,114.3723448,1.036502522,21.84966165,-0.216407262,-0.009198207,0.02559012,0.146688951,0.00999945,0.937091621
4.86,114.5887684,1.06659518,21.84933553,-0.217577974,-0.009208362,0.025659964,0.149020667,0.00999638,0.938230614
4.87,114.8051197,1.097181062,21.8490081,-0.218710298,-0.009218187,0.025726983,0.15135558,0.009994241,0.939258515
4.88,115.0213973,1.12826103,21.84867977,-0.219806256,-0.009227673,0.02579125,0.153693544,0.009995228,0.940175646
4.89,115.2376001,1.159835892,21.84835101,-0.220867933,-0.009236813,0.025852828,0.156034409,0.009997933,0.940982457
4.9,115.4537266,1.191906398,21.84802235,-0.221897324,-0.009245604,0.025911769,0.158378021,0.010001098,0.941705208
4.91,115.6697757,1.224473245,21.84769423,-0.222896095,-0.009254044,0.025968118,0.160724218,0.010004027,0.942530861
4.92,115.8857461,1.257537079,21.84736692,-0.22386467,-0.009262132,0.026021934,0.163072837,0.010005756,0.943248677
4.93,116.1016365,1.291098511,21.84704066,-0.224802722,-0.009269872,0.026073282,0.165423717,0.010004342,0.943859198
4.94,116.3174457,1.325158114,21.84671576,-0.225710562,-0.009277264,0.026122225,0.167776703,0.010002051,0.944363717
4.95,116.5331724,1.359716419,21.8463925,-0.226588949,-0.009284315,0.026168828,0.17013164,0.009999808,0.944763963
4.96,116.7488154,1.394773912,21.84607123,-0.227438891,-0.00929103,0.026213152,0.172488369,0.009997917,0.945060986
4.97,116.9643734,1.430331032,21.84575239,-0.228261466,-0.009297418,0.026255244,0.174846726,0.009997163,0.945256142
4.98,117.1798452,1.466388169,21.84543645,-0.229057683,-0.009303486,0.026295143,0.177206544,0.009997347,0.945404425
4.99,117.3952295,1.502945666,21.84512381,-0.229828127,-0.009309246,0.02633288,0.179567648,0.009997815,0.945639612
5,117.6105252,1.540003823,21.84481464,-0.230572222,-0.009314708,0.026368503,0.181929865,0.009998337,0.945780195
5.01,117.825731,1.577562914,21.84450919,-0.231288862,-0.009319883,0.02640206,0.184293025,0.00999895,0.945828272
5.02,118.0408458,1.615623179,21.84420767,-0.231977586,-0.009324784,0.026433601,0.186656963,0.009999826,0.945786681
5.03,118.2558683,1.654184824,21.84391031,-0.232638384,-0.009329421,0.026463178,0.189021517,0.010000793,0.945658218
5.04,118.4707973,1.693248017,21.84361741,-0.233271422,-0.009333809,0.026490838,0.191386524,0.010001814,0.945444532
5.05,118.6856316,1.732812887,21.84332932,-0.233876853,-0.009337959,0.026516625,0.19375182,0.01000263,0.945147385
5.06,118.9003701,1.772879524,21.84304641,-0.234454752,-0.009341885,0.026540576,0.19611724,0.010002554,0.944849675
5.07,119.1150115,1.813447981,21.84276893,-0.235004753,-0.0093456,0.026562728,0.198482621,0.010001381,0.944629006
5.08,119.3295547,1.854518283,21.84249699,-0.235525631,-0.009349116,0.026583138,0.200847803,0.009999936,0.944330838
5.09,119.5439986,1.896090433,21.84223074,-0.236016105,-0.009352447,0.02660186,0.203212639,0.009998537,0.943956648
5.1,119.758342,1.938164409,21.84197032,-0.236475637,-0.009355605,0.02661895,0.205576988,0.009997551,0.943508724
5.11,119.9725836,1.980740161,21.84171591,-0.236904164,-0.0093586,0.026634465,0.207940713,0.009997838,0.942989435
5.12,120.1867225,2.023817606,21.84146774,-0.237301908,-0.009361445,0.026648452,0.210303681,0.009998649,0.942400276
5.13,120.4007574,2.067396629,21.84122614,-0.237669252,-0.00936415,0.026660946,0.212665762,0.009999615,0.941742957
5.14,120.6146871,2.111477081,21.84099141,-0.238006623,-0.009366728,0.026671974,0.215026826,0.010000509,0.941127845
5.15,120.8285107,2.156058781,21.84076372,-0.238313982,-0.009369187,0.02668156,0.217386746,0.010000971,0.940577761
5.16,121.0422269,2.201141525,21.84054312,-0.238590508,-0.00937154,0.026689738,0.219745399,0.01000059,0.939965122
5.17,121.2558347,2.246725087,21.84032974,-0.23883548,-0.009373793,0.026696539,0.222102676,0.01,0.939290656
5.18,121.4693329,2.292809225,21.84012367,-0.239048885,-0.009375957,0.026701995,0.224458475,0.009999465,0.938555731
5.19,121.6827205,2.339393667,21.83992506,-0.239231164,-0.009378038,0.026706133,0.226812695,0.009999169,0.937761653
5.2,121.8959963,2.386478115,21.83973412,-0.23938304,-0.009380044,0.026708974,0.229165244,0.009999599,0.93690898
5.21,122.1091593,2.434062242,21.83955111,-0.239505379,-0.009381981,0.026710528,0.231516026,0.010000495,0.935998609
5.22,122.3222083,2.482145689,21.83937628,-0.239599079,-0.009383857,0.0267108,0.233864947,0.010001545,0.935167124
5.23,122.5351425,2.530728072,21.83920973,-0.239664447,-0.009385677,0.026709799,0.236211917,0.010002539,0.934384279
5.24,122.7479606,2.579808983,21.8390515,-0.239701025,-0.009387447,0.026707543,0.238556851,0.010003098,0.933549255
5.25,122.9606616,2.629388004,21.83890165,-0.239708561,-0.00938917,0.026704055,0.240899671,0.010002231,0.932663252
5.26,123.1732445,2.679464696,21.83876025,-0.23968746,-0.00939085,0.026699362,0.24324031,0.010001021,0.931727748
5.27,123.3857083,2.7300386,21.83862739,-0.23963855,-0.00939249,0.026693489,0.245578703,0.009999842,0.930743797
5.28,123.5980519,2.781109233,21.83850324,-0.239562908,-0.009394094,0.026686458,0.247914786,0.009998764,0.929711714
5.29,123.8102743,2.832676083,21.838388,-0.239461735,-0.009395662,0.026678285,0.250248496,0.009997929,0.928632004
5.3,124.0223745,2.884738615,21.8382819,-0.239336228,-0.009397198,0.026668978,0.25257977,0.009997326,0.927665381
5.31,124.2343514,2.937296269,21.83818494,-0.239186871,-0.009398703,0.026658556,0.254908547,0.009996819,0.926730561
5.32,124.4462042,2.990348471,21.83809713,-0.239013382,-0.009400178,0.026647048,0.25723477,0.009996399,0.925751436
5.33,124.6579318,3.043894636,21.83801848,-0.238815812,-0.009401622,0.026634487,0.259558393,0.009996438,0.924728953
5.34,124.8695332,3.097934167,21.83794901,-0.238594835,-0.009403037,0.026620907,0.261879375,0.009998227,0.923664686
5.35,125.0810075,3.152466446,21.83788877,-0.238351521,-0.009404421,0.026606342,0.264197678,0.010000521,0.922559809
5.36,125.2923536,3.207490835,21.83783789,-0.238087159,-0.009405774,0.026590821,0.266513264,0.010002953,0.921414812
5.37,125.5035707,3.263006676,21.83779653,-0.23780312,-0.009407094,0.026574364,0.268826096,0.01000505,0.920230339
5.38,125.7146578,3.319013285,21.83776485,-0.237500732,-0.009408382,0.026556982,0.271136133,0.010005741,0.91919037
5.39,125.9256139,3.375509963,21.83774281,-0.237180458,-0.009409636,0.026538701,0.273443336,0.010004411,0.91816668
5.4,126.1364381,3.432496,21.83773035,-0.236841984,-0.009410855,0.026519554,0.275747673,0.010002544,0.917106034
5.41,126.3471295,3.489970681,21.83772745,-0.236485441,-0.009412037,0.026499575,0.278049121,0.010000725,0.916009082
5.42,126.5576872,3.547933282,21.83773406,-0.236111562,-0.00941318,0.026478802,0.280347659,0.009999021,0.914877088
5.43,126.7681103,3.606383062,21.8377502,-0.235721455,-0.009414282,0.026457273,0.282643271,0.009997574,0.91371094
5.44,126.9783978,3.665319268,21.83777594,-0.235316432,-0.009415342,0.026435017,0.284935939,0.009996274,0.912511122
5.45,127.1885489,3.724741125,21.83781143,-0.234897867,-0.009416357,0.026412054,0.287225644,0.009995045,0.911278227
5.46,127.3985626,3.784647844,21.83785677,-0.234467064,-0.009417326,0.026388397,0.289512365,0.009994109,0.910216671
5.47,127.6084381,3.845038619,21.83791185,-0.234024342,-0.009418249,0.026364073,0.291796081,0.009994259,0.909156624
